[{"nameRus":"Абакан","nameEn":"Abakan","icaoRus":"УНАА","icao":"UNAA","frequency":108.025,"сhannel":22056,"latitude":53.7494469,"longitude":91.38917,"latitudeStr":"534458.1N","longitudeStr":"0912321.7E"},{"nameRus":"Анадырь","nameEn":"Anadyr","icaoRus":"УХМА","icao":"UHMA","frequency":114.35,"сhannel":22309,"latitude":64.72083,"longitude":177.739166,"latitudeStr":"644315.3N","longitudeStr":"1774421.0E"},{"nameRus":"Анапа","nameEn":"Anapa","icaoRus":"УРКА","icao":"URKA","frequency":108.45,"сhannel":22073,"latitude":45.0019455,"longitude":37.339447,"latitudeStr":"450007.2N","longitudeStr":"0372022.4E"},{"nameRus":"Апатиты(Хибины)","nameEn":"Apatity(Khibiny)","icaoRus":"УЛMK","icao":"ULMK","frequency":112.35,"сhannel":22229,"latitude":67.46834,"longitude":33.57111,"latitudeStr":"672806.8N","longitudeStr":"0333416.1E"},{"nameRus":"Архангельск","nameEn":"Arkhangelsk","icaoRus":"УЛАА","icao":"ULAA","frequency":114.35,"сhannel":22309,"latitude":64.60889,"longitude":40.7,"latitudeStr":"643632.1N","longitudeStr":"0404200.2E"},{"nameRus":"Астрахань","nameEn":"Astrakhan","icaoRus":"УРВА","icao":"URWA","frequency":108.65,"сhannel":22081,"latitude":46.2869453,"longitude":48.0027771,"latitudeStr":"461713.9N","longitudeStr":"0480010.5E"},{"nameRus":"Барнаул","nameEn":"Barnaul","icaoRus":"УНББ","icao":"UNBB","frequency":112.35,"сhannel":22229,"latitude":53.3608322,"longitude":83.54584,"latitudeStr":"532139.2N","longitudeStr":"0833245.1E"},{"nameRus":"Бегишево","nameEn":"Begishevo","icaoRus":"УВКЕ","icao":"UWKE","frequency":113.15,"сhannel":22261,"latitude":55.5658379,"longitude":52.08972,"latitudeStr":"553357.9N","longitudeStr":"0520523.3E"},{"nameRus":"Белгород","nameEn":"Belgorod","icaoRus":"УУОБ","icao":"UUOB","frequency":114.45,"сhannel":22313,"latitude":50.64528,"longitude":36.5905571,"latitudeStr":"503843.2N","longitudeStr":"0363526.9E"},{"nameRus":"Благовещенск","nameEn":"Blagoveshchensk","icaoRus":"УХББ","icao":"UHBB","frequency":112.35,"сhannel":22229,"latitude":50.42389,"longitude":127.407227,"latitudeStr":"502526.1N","longitudeStr":"1272426.8E"},{"nameRus":"Бованенково","nameEn":"Bovanenkovo","icaoRus":"УСДБ","icao":"USDB","frequency":114.35,"сhannel":22309,"latitude":70.3175,"longitude":68.34556,"latitudeStr":"701903.3N","longitudeStr":"0682044.8E"},{"nameRus":"Братск","nameEn":"Bratsk","icaoRus":"УИББ","icao":"UIBB","frequency":113.35,"сhannel":22269,"latitude":56.3652763,"longitude":101.701942,"latitudeStr":"562155.1N","longitudeStr":"1014207.4E"},{"nameRus":"Владивосток","nameEn":"Vladivostok","icaoRus":"УХВВ","icao":"UHWW","frequency":108.15,"сhannel":22061,"latitude":43.40639,"longitude":132.161667,"latitudeStr":"432423.6N","longitudeStr":"1320942.7E"},{"nameRus":"Владикавказ","nameEn":"Vladikavkaz","icaoRus":"УРМО","icao":"URMO","frequency":108.5,"сhannel":22075,"latitude":43.20139,"longitude":44.6055565,"latitudeStr":"431205.3N","longitudeStr":"0443620.6E"},{"nameRus":"Волгоград","nameEn":"Volgograd","icaoRus":"УРВВ","icao":"URWW","frequency":109.05,"сhannel":22097,"latitude":48.7794456,"longitude":44.3430557,"latitudeStr":"484646.5N","longitudeStr":"0442035.3E"},{"nameRus":"Вологда","nameEn":"Vologda","icaoRus":"УЛВВ","icao":"ULWW","frequency":113.35,"сhannel":22269,"latitude":59.2883339,"longitude":39.94889,"latitudeStr":"591718.6N","longitudeStr":"0395656.1E"},{"nameRus":"Воркута","nameEn":"Vorkuta","icaoRus":"УУЫВ","icao":"UUYW","frequency":115.0,"сhannel":22335,"latitude":67.49028,"longitude":64.00445,"latitudeStr":"672925.0N","longitudeStr":"0640016.1E"},{"nameRus":"Воронеж","nameEn":"Voronezh","icaoRus":"УУОО","icao":"UUOO","frequency":116.8,"сhannel":22407,"latitude":51.82,"longitude":39.2236137,"latitudeStr":"514912.1N","longitudeStr":"0391325.8E"},{"nameRus":"Геленджик","nameEn":"Gelendzhik","icaoRus":"УРКГ","icao":"URKG","frequency":108.2,"сhannel":22063,"latitude":44.5794449,"longitude":38.0155563,"latitudeStr":"443446.5N","longitudeStr":"0380056.7E"},{"nameRus":"Горно-Алтайск","nameEn":"Gorno-Altaysk","icaoRus":"УНБГ","icao":"UNBG","frequency":116.35,"сhannel":22389,"latitude":51.9622231,"longitude":85.867775,"latitudeStr":"515744.0N","longitudeStr":"0855204.0E"},{"nameRus":"Грозный","nameEn":"Grozny","icaoRus":"УРМГ","icao":"URMG","frequency":108.15,"сhannel":22061,"latitude":43.38639,"longitude":45.70361,"latitudeStr":"432311.5N","longitudeStr":"0454213.1E"},{"nameRus":"Екатеринбург","nameEn":"Yekaterinburg","icaoRus":"УССС","icao":"USSS","frequency":114.2,"сhannel":22303,"latitude":56.74972,"longitude":60.8025,"latitudeStr":"564459.0N","longitudeStr":"0604809.7E"},{"nameRus":"Игарка","nameEn":"Igarka","icaoRus":"УОИИ","icao":"UOII","frequency":111.3,"сhannel":22187,"latitude":67.44222,"longitude":86.60389,"latitudeStr":"672632.7N","longitudeStr":"0863614.7E"},{"nameRus":"Иркутск","nameEn":"Irkutsk","icaoRus":"УИИИ","icao":"UIII","frequency":114.35,"сhannel":22309,"latitude":52.2619438,"longitude":104.40889,"latitudeStr":"521543.3N","longitudeStr":"1042432.5E"},{"nameRus":"Йошкар-Ола","nameEn":"Yoshkar-Ola","icaoRus":"УВКЖ","icao":"UWKJ","frequency":116.0,"сhannel":22375,"latitude":56.7,"longitude":47.9066658,"latitudeStr":"564200.0N","longitudeStr":"0475424.1E"},{"nameRus":"Итуруп","nameEn":"Iturup","icaoRus":"УХСИ","icao":"UHSI","frequency":114.1,"сhannel":22299,"latitude":45.26,"longitude":147.954163,"latitudeStr":"451536.1N","longitudeStr":"1475715.0E"},{"nameRus":"Казань","nameEn":"Kazan","icaoRus":"УВКД","icao":"UWKD","frequency":116.35,"сhannel":22389,"latitude":55.58806,"longitude":49.2997246,"latitudeStr":"553517.7N","longitudeStr":"0491759.6E"},{"nameRus":"Кемерово","nameEn":"Kemerovo","icaoRus":"УНЕЕ","icao":"UNEE","frequency":113.35,"сhannel":22269,"latitude":55.2808342,"longitude":86.11667,"latitudeStr":"551651.2N","longitudeStr":"0860700.0E"},{"nameRus":"Кепервеем","nameEn":"Keperveem","icaoRus":"УХМК","icao":"UHMK","frequency":114.35,"сhannel":22309,"latitude":67.84639,"longitude":166.109161,"latitudeStr":"675047.7N","longitudeStr":"1660633.0E"},{"nameRus":"Киренск","nameEn":"Kirensk","icaoRus":"УИКК","icao":"UIKK","frequency":114.4,"сhannel":22311,"latitude":57.77,"longitude":108.053337,"latitudeStr":"574612.2N","longitudeStr":"1080312.8E"},{"nameRus":"Комсомольск-на-Амуре(Дземги)","nameEn":"Komsomolsk-na-Amure(Dzemgi)","icaoRus":"УХКК","icao":"UHKB","frequency":116.3,"сhannel":22387,"latitude":50.4044456,"longitude":136.928619,"latitudeStr":"502416.4N","longitudeStr":"1365543.6E"},{"nameRus":"Котлас","nameEn":"Kotlas","icaoRus":"УЛКК","icao":"ULKK","frequency":111.5,"сhannel":22195,"latitude":61.23778,"longitude":46.7022247,"latitudeStr":"611416.8N","longitudeStr":"0464208.3E"},{"nameRus":"Краснодар","nameEn":"Krasnodar","icaoRus":"УРКК","icao":"URKK","frequency":113.35,"сhannel":22269,"latitude":45.0347252,"longitude":39.1394424,"latitudeStr":"450205.7N","longitudeStr":"0390822.0E"},{"nameRus":"Красноярск(Емельяново)","nameEn":"Krasnoyarsk(Yemelyanovo)","icaoRus":"УНКЛ","icao":"UNKL","frequency":114.375,"сhannel":22310,"latitude":56.17389,"longitude":92.51361,"latitudeStr":"561026.5N","longitudeStr":"0923049.1E"},{"nameRus":"Курган","nameEn":"Kurgan","icaoRus":"УСУУ","icao":"USUU","frequency":114.65,"сhannel":22321,"latitude":55.46361,"longitude":65.41333,"latitudeStr":"552749.2N","longitudeStr":"0652448.0E"},{"nameRus":"Кызыл","nameEn":"Kyzyl","icaoRus":"УНКЫ","icao":"UNKY","frequency":114.35,"сhannel":22309,"latitude":51.6688881,"longitude":94.40278,"latitudeStr":"514008.0N","longitudeStr":"0942410.1E"},{"nameRus":"Ленск","nameEn":"Lensk","icaoRus":"УЕРЛ","icao":"UERL","frequency":114.35,"сhannel":22309,"latitude":60.7225037,"longitude":114.831665,"latitudeStr":"604321.7N","longitudeStr":"1144954.0E"},{"nameRus":"Лешуконское","nameEn":"Leshukonskoye","icaoRus":"УЛАЛ","icao":"ULAL","frequency":112.0,"сhannel":22215,"latitude":64.8936157,"longitude":45.7391663,"latitudeStr":"645337.4N","longitudeStr":"0454421.0E"},{"nameRus":"Магадан","nameEn":"Magadan","icaoRus":"УХММ","icao":"UHMM","frequency":114.35,"сhannel":22309,"latitude":59.91389,"longitude":150.7286,"latitudeStr":"595450.4N","longitudeStr":"1504343.1E"},{"nameRus":"Магнигорск","nameEn":"Magnitogorsk","icaoRus":"УСЦМ","icao":"USCM","frequency":115.4,"сhannel":22351,"latitude":53.403614,"longitude":58.7630577,"latitudeStr":"532413.6N","longitudeStr":"0584547.4E"},{"nameRus":"Махачкала","nameEn":"Makhachkala","icaoRus":"УРМЛ","icao":"URML","frequency":113.85,"сhannel":22289,"latitude":42.8191681,"longitude":47.6569481,"latitudeStr":"424909.5N","longitudeStr":"0473925.8E"},{"nameRus":"Минеральные Воды","nameEn":"Mineralnyye Vody","icaoRus":"УРММ","icao":"URMM","frequency":114.35,"сhannel":22309,"latitude":44.2147255,"longitude":43.0905571,"latitudeStr":"441253.7N","longitudeStr":"0430526.4E"},{"nameRus":"Мирный","nameEn":"Mirny","icaoRus":"УЕРР","icao":"UERR","frequency":113.35,"сhannel":22269,"latitude":62.5311127,"longitude":114.021393,"latitudeStr":"623152.1N","longitudeStr":"1140117.4E"},{"nameRus":"Москва (Внуково)","nameEn":"Moscow (Vnukovo)","icaoRus":"УУВВ","icao":"UUWW","frequency":108.5,"сhannel":22075,"latitude":55.5897255,"longitude":37.2741661,"latitudeStr":"553523.6N","longitudeStr":"0371627.0E"},{"nameRus":"Москва (Домодедово)","nameEn":"Moscow (Domodedovo)","icaoRus":"УУДД","icao":"UUDD","frequency":114.425,"сhannel":22312,"latitude":55.41389,"longitude":37.90028,"latitudeStr":"552450.8N","longitudeStr":"0375401.3E"},{"nameRus":"Москва (Шереметьево)","nameEn":"Moscow (Sheremetyevo)","icaoRus":"УУЕЕ","icao":"UUEE","frequency":112.55,"сhannel":22237,"latitude":55.9755554,"longitude":37.4133339,"latitudeStr":"555832.0N","longitudeStr":"0372448.3E"},{"nameRus":"Мурманск","nameEn":"Murmansk","icaoRus":"УЛMM","icao":"ULMM","frequency":113.35,"сhannel":22269,"latitude":68.78028,"longitude":32.7480545,"latitudeStr":"684649.5N","longitudeStr":"0324453.3E"},{"nameRus":"Надым","nameEn":"Nadym","icaoRus":"УСММ","icao":"USMM","frequency":114.35,"сhannel":22309,"latitude":65.47945,"longitude":72.69278,"latitudeStr":"652846.0N","longitudeStr":"0724134.7E"},{"nameRus":"Нальчик","nameEn":"Nalchik","icaoRus":"УРМН","icao":"URMN","frequency":113.65,"сhannel":22281,"latitude":43.515,"longitude":43.6383362,"latitudeStr":"433054.4N","longitudeStr":"0433818.7E"},{"nameRus":"Нарьян-Мар","nameEn":"Naryan-Mar","icaoRus":"УЛAM","icao":"ULAM","frequency":111.0,"сhannel":22175,"latitude":67.6366653,"longitude":53.1244469,"latitudeStr":"673812.9N","longitudeStr":"0530728.1E"},{"nameRus":"Нерюнгри","nameEn":"Neryungri","icaoRus":"УЕЛЛ","icao":"UELL","frequency":110.9,"сhannel":22171,"latitude":56.9050026,"longitude":124.901665,"latitudeStr":"565418.4N","longitudeStr":"1245406.1E"},{"nameRus":"Нижневартовск","nameEn":"Nizhnevartovsk","icaoRus":"УСНН","icao":"USNN","frequency":113.5,"сhannel":22275,"latitude":60.9458351,"longitude":76.47139,"latitudeStr":"605645.4N","longitudeStr":"0762817.9E"},{"nameRus":"Нижний Новгород","nameEn":"Nizhny Novgorod","icaoRus":"УВГГ","icao":"UWGG","frequency":111.15,"сhannel":22181,"latitude":56.22222,"longitude":43.7911148,"latitudeStr":"561320.1N","longitudeStr":"0434728.7E"},{"nameRus":"Новокузнецк","nameEn":"Novokuznetsk","icaoRus":"УНВВ","icao":"UNWW","frequency":114.85,"сhannel":22329,"latitude":53.81389,"longitude":86.88306,"latitudeStr":"534850.5N","longitudeStr":"0865259.1E"},{"nameRus":"Новосибирск","nameEn":"Novosibirsk","icaoRus":"УННТ","icao":"UNNT","frequency":114.35,"сhannel":22309,"latitude":55.0169449,"longitude":82.65139,"latitudeStr":"550101.6N","longitudeStr":"0823905.3E"},{"nameRus":"Новый Уренгой","nameEn":"Novy Urengoy","icaoRus":"УСМУ","icao":"USMU","frequency":114.7,"сhannel":22323,"latitude":66.0636139,"longitude":76.56528,"latitudeStr":"660349.6N","longitudeStr":"0763355.7E"},{"nameRus":"Ноглики","nameEn":"Nogliki","icaoRus":"УХСН","icao":"UHSN","frequency":114.35,"сhannel":22309,"latitude":51.7891655,"longitude":143.141953,"latitudeStr":"514721.2N","longitudeStr":"1430831.2E"},{"nameRus":"Норильск","nameEn":"Norilsk","icaoRus":"УООО","icao":"UOOO","frequency":108.25,"сhannel":22065,"latitude":69.32472,"longitude":87.34278,"latitudeStr":"691929.7N","longitudeStr":"0872034.6E"},{"nameRus":"Ноябрьск","nameEn":"Noyabrsk","icaoRus":"УСРО","icao":"USRO","frequency":113.35,"сhannel":22269,"latitude":63.1808357,"longitude":75.273056,"latitudeStr":"631051.8N","longitudeStr":"0751623.9E"},{"nameRus":"Омск","nameEn":"Omsk","icaoRus":"УНОО","icao":"UNOO","frequency":111.75,"сhannel":22205,"latitude":54.965,"longitude":73.31084,"latitudeStr":"545754.1N","longitudeStr":"0731839.7E"},{"nameRus":"Оренбург","nameEn":"Orenburg","icaoRus":"УВОО","icao":"UWOO","frequency":115.7,"сhannel":22363,"latitude":51.7958336,"longitude":55.53528,"latitudeStr":"514745.5N","longitudeStr":"0553207.0E"},{"nameRus":"Орск","nameEn":"Orsk","icaoRus":"УВОР","icao":"UWOR","frequency":114.35,"сhannel":22309,"latitude":51.07639,"longitude":58.5936127,"latitudeStr":"510435.8N","longitudeStr":"0583537.3E"},{"nameRus":"Певек","nameEn":"Pevek","icaoRus":"УХМП","icao":"UHMP","frequency":112.5,"сhannel":22235,"latitude":69.78834,"longitude":170.602509,"latitudeStr":"694718.7N","longitudeStr":"1703609.6E"},{"nameRus":"Пенза","nameEn":"Penza","icaoRus":"УВПП","icao":"UWPP","frequency":115.35,"сhannel":22349,"latitude":53.1183319,"longitude":45.01917,"latitudeStr":"530706.0N","longitudeStr":"0450109.1E"},{"nameRus":"Пермь","nameEn":"Perm","icaoRus":"УСПП","icao":"USPP","frequency":114.35,"сhannel":22309,"latitude":57.9205551,"longitude":56.02111,"latitudeStr":"575514.1N","longitudeStr":"0560116.0E"},{"nameRus":"Петрозаводск","nameEn":"Petrozavodsk","icaoRus":"УЛПБ","icao":"ULPB","frequency":115.25,"сhannel":22345,"latitude":61.8858337,"longitude":34.16111,"latitudeStr":"615309.5N","longitudeStr":"0340940.0E"},{"nameRus":"Петропавловск-Камчатский","nameEn":"Petropavlovsk-Kamchatsky","icaoRus":"УХПП","icao":"UHPP","frequency":113.35,"сhannel":22269,"latitude":53.16528,"longitude":158.447784,"latitudeStr":"530955.6N","longitudeStr":"1582652.2E"},{"nameRus":"Подкаменная Тунгуска","nameEn":"Podkamennaya Tunguska","icaoRus":"УНИП","icao":"UNIP","frequency":108.025,"сhannel":22056,"latitude":61.5919456,"longitude":89.99306,"latitudeStr":"613531.9N","longitudeStr":"0895935.0E"},{"nameRus":"Полярный","nameEn":"Poliarny","icaoRus":"УЕРП","icao":"UERP","frequency":116.5,"сhannel":22395,"latitude":66.4,"longitude":112.037781,"latitudeStr":"662400.3N","longitudeStr":"1120216.8E"},{"nameRus":"Псков","nameEn":"Pskov","icaoRus":"УЛОО","icao":"ULOO","frequency":113.35,"сhannel":22269,"latitude":57.7972221,"longitude":28.3925,"latitudeStr":"574750.3N","longitudeStr":"0282333.0E"},{"nameRus":"Ростов-на-Дону (Платов)","nameEn":"Rostov-na-Donu (Platov)","icaoRus":"УРРП","icao":"URRP","frequency":108.85,"сhannel":22089,"latitude":47.4950027,"longitude":39.9411125,"latitudeStr":"472942.2N","longitudeStr":"0395628.9E"},{"nameRus":"Сабетта","nameEn":"Sabetta","icaoRus":"УСДА","icao":"USDA","frequency":115.8,"сhannel":22367,"latitude":71.21889,"longitude":72.047226,"latitudeStr":"711308.8N","longitudeStr":"0720250.3E"},{"nameRus":"Салехард","nameEn":"Salekhard","icaoRus":"УСДД","icao":"USDD","frequency":114.5,"сhannel":22315,"latitude":66.5908356,"longitude":66.585556,"latitudeStr":"663527.7N","longitudeStr":"0663508.7E"},{"nameRus":"Самара (Курумоч)","nameEn":"Samara (Kurumoch)","icaoRus":"УВВВ","icao":"UWWW","frequency":114.35,"сhannel":22309,"latitude":53.50778,"longitude":50.18667,"latitudeStr":"533028.9N","longitudeStr":"0501112.4E"},{"nameRus":"Санкт-Петербург (Пулково)","nameEn":"Sankt-Peterburg (Pulkovo)","icaoRus":"УЛЛИ","icao":"ULLI","frequency":114.35,"сhannel":22309,"latitude":59.8033333,"longitude":30.2975025,"latitudeStr":"594812.1N","longitudeStr":"0301751.7E"},{"nameRus":"Саратов","nameEn":"Saratov","icaoRus":"УВСС","icao":"UWSS","frequency":112.4,"сhannel":22231,"latitude":51.63389,"longitude":46.0361137,"latitudeStr":"513802.4N","longitudeStr":"0460210.8E"},{"nameRus":"Северо-Енисейск","nameEn":"Severo-Yeniseysk","icaoRus":"УНИС","icao":"UNIS","frequency":113.8,"сhannel":22287,"latitude":60.37278,"longitude":93.01611,"latitudeStr":"602222.8N","longitudeStr":"0930058.5E"},{"nameRus":"Слепцовкая (Магас)","nameEn":"Sleptsovskaya (Magas)","icaoRus":"УРМС","icao":"URMS","frequency":114.65,"сhannel":22321,"latitude":43.3183365,"longitude":45.015,"latitudeStr":"431906.5N","longitudeStr":"0450054.2E"},{"nameRus":"Симферополь","nameEn":"Simferopol","icaoRus":"УРФФ","icao":"URFF","frequency":108.5,"сhannel":22075,"latitude":45.0525,"longitude":33.9708366,"latitudeStr":"450309.1N","longitudeStr":"0335815.5E"},{"nameRus":"Сочи","nameEn":"Sochi","icaoRus":"УРСС","icao":"URSS","frequency":116.45,"сhannel":22393,"latitude":43.45,"longitude":39.9480553,"latitudeStr":"432700.3N","longitudeStr":"0395653.4E"},{"nameRus":"Ставрополь","nameEn":"Stavropol","icaoRus":"УРМТ","icao":"URMT","frequency":108.4,"сhannel":22071,"latitude":45.11,"longitude":42.1083336,"latitudeStr":"450636.0N","longitudeStr":"0420630.1E"},{"nameRus":"Стрежевой","nameEn":"Strezhevoy","icaoRus":"УНСС","icao":"UNSS","frequency":114.5,"сhannel":22315,"latitude":60.7519455,"longitude":77.6300049,"latitudeStr":"604507.9N","longitudeStr":"0773748.9E"},{"nameRus":"Сургут","nameEn":"Surgut","icaoRus":"УСРР","icao":"USRR","frequency":114.35,"сhannel":22309,"latitude":61.34028,"longitude":73.41139,"latitudeStr":"612025.0N","longitudeStr":"0732441.8E"},{"nameRus":"Сыктывкар","nameEn":"Syktyvkar","icaoRus":"УУЫЫ","icao":"UUYY","frequency":117.0,"сhannel":22415,"latitude":61.653614,"longitude":50.8561134,"latitudeStr":"613913.9N","longitudeStr":"0505122.7E"},{"nameRus":"Тверь","nameEn":"Tver","icaoRus":"УУБН","icao":"UUBN","frequency":113.0,"сhannel":22255,"latitude":56.8277779,"longitude":35.8133354,"latitudeStr":"564940.6N","longitudeStr":"0354848.6E"},{"nameRus":"Тикси","nameEn":"Tiksi","icaoRus":"УЕСТ","icao":"UEST","frequency":116.6,"сhannel":22399,"latitude":71.69806,"longitude":128.888336,"latitudeStr":"714153.9N","longitudeStr":"1285318.8E"},{"nameRus":"Томск","nameEn":"Tomsk","icaoRus":"УНТТ","icao":"UNTT","frequency":115350.0,"сhannel":22349,"latitude":56.38139,"longitude":85.21306,"latitudeStr":"562253.1N","longitudeStr":"0851247.4E"},{"nameRus":"Туруханск","nameEn":"Turukhansk","icaoRus":"УОТТ","icao":"UOTT","frequency":116.2,"сhannel":22383,"latitude":65.80195,"longitude":87.93,"latitudeStr":"654807.7N","longitudeStr":"0875548.8E"},{"nameRus":"Тура","nameEn":"Tura","icaoRus":"УНИТ","icao":"UNIT","frequency":112.0,"сhannel":22215,"latitude":64.34,"longitude":100.430557,"latitudeStr":"642024.0N","longitudeStr":"1002550.6E"},{"nameRus":"Тюмень","nameEn":"Tyumen","icaoRus":"УСТР","icao":"USTR","frequency":114.35,"сhannel":22309,"latitude":57.1819458,"longitude":65.3475,"latitudeStr":"571055.5N","longitudeStr":"0652051.7E"},{"nameRus":"Улан-Удэ","nameEn":"Ulan-Ude","icaoRus":"УИУУ","icao":"UIUU","frequency":114.45,"сhannel":22313,"latitude":51.8050041,"longitude":107.446671,"latitudeStr":"514818.9N","longitudeStr":"1072648.0E"},{"nameRus":"Ульяновск (Баратаевка)","nameEn":"Ulyanovsk (Baratayevka)","icaoRus":"УВЛЛ","icao":"UWLL","frequency":115.5,"сhannel":22355,"latitude":54.2722244,"longitude":48.23945,"latitudeStr":"541620.9N","longitudeStr":"0481422.9E"},{"nameRus":"Усинск","nameEn":"Usinsk","icaoRus":"УУЫС","icao":"UUYS","frequency":113.0,"сhannel":22255,"latitude":66.00278,"longitude":57.3758354,"latitudeStr":"660010.4N","longitudeStr":"0572233.9E"},{"nameRus":"Усть-Кут","nameEn":"Ust-Kut","icaoRus":"УИТТ","icao":"UITT","frequency":113.95,"сhannel":22293,"latitude":56.8566666,"longitude":105.741943,"latitudeStr":"565124.4N","longitudeStr":"1054431.7E"},{"nameRus":"Ухта","nameEn":"Ukhta","icaoRus":"УУЫХ","icao":"UUYH","frequency":114.75,"сhannel":22325,"latitude":63.5633354,"longitude":53.79889,"latitudeStr":"633348.9N","longitudeStr":"0534756.6E"},{"nameRus":"Уфа","nameEn":"Ufa","icaoRus":"УВУУ","icao":"UWUU","frequency":113.35,"сhannel":22269,"latitude":54.5577774,"longitude":55.8611145,"latitudeStr":"543328.5N","longitudeStr":"0555140.7E"},{"nameRus":"Хабаровск","nameEn":"Khabarovsk","icaoRus":"УХХХ","icao":"UHHH","frequency":114.35,"сhannel":22309,"latitude":48.51889,"longitude":135.183884,"latitudeStr":"483108.0N","longitudeStr":"1351102.2E"},{"nameRus":"Ханты-Мансийск","nameEn":"Khanty-Mansiysk","icaoRus":"УСХХ","icao":"USHH","frequency":116.5,"сhannel":22395,"latitude":61.03361,"longitude":69.12889,"latitudeStr":"610201.2N","longitudeStr":"0690744.0E"},{"nameRus":"Хатанга","nameEn":"Khatanga","icaoRus":"УОХХ","icao":"UOHH","frequency":115.35,"сhannel":22349,"latitude":71.97667,"longitude":102.492226,"latitudeStr":"715836.8N","longitudeStr":"1022932.1E"},{"nameRus":"Челябинск","nameEn":"Chelyabinsk","icaoRus":"УСЦЦ","icao":"USCC","frequency":113.45,"сhannel":22273,"latitude":53.3022232,"longitude":61.5033379,"latitudeStr":"531808.5N","longitudeStr":"0613012.9E"},{"nameRus":"Чита","nameEn":"Chita","icaoRus":"УИАА","icao":"UIAA","frequency":114350.0,"сhannel":22309,"latitude":52.0244446,"longitude":113.304443,"latitudeStr":"520128.0N","longitudeStr":"1131816.4E"},{"nameRus":"Элиста","nameEn":"Elista","icaoRus":"УРВИ","icao":"URWI","frequency":109.85,"сhannel":22129,"latitude":46.3719444,"longitude":44.32945,"latitudeStr":"462219.1N","longitudeStr":"0441946.8E"},{"nameRus":"Южно-Курильск","nameEn":"Yuzhno-Kurilsk","icaoRus":"УХСМ","icao":"UHSM","frequency":114.35,"сhannel":22309,"latitude":43.959446,"longitude":145.6814,"latitudeStr":"435734.4N","longitudeStr":"1454053.2E"},{"nameRus":"Южно-Сахалинск","nameEn":"Yuzhno-Sakhalinsk","icaoRus":"УХСС","icao":"UHSS","frequency":113.35,"сhannel":22269,"latitude":46.88778,"longitude":142.714172,"latitudeStr":"465316.7N","longitudeStr":"1424251.1E"},{"nameRus":"Якутск","nameEn":"Yakutsk","icaoRus":"УЕЕЕ","icao":"UEEE","frequency":114.35,"сhannel":22309,"latitude":62.08778,"longitude":129.750549,"latitudeStr":"620516.8N","longitudeStr":"1294502.2E"},{"nameRus":"Ярославль","nameEn":"Yaroslavl","icaoRus":"УУДЛ","icao":"UUDL","frequency":108.1,"сhannel":22059,"latitude":57.56278,"longitude":40.1722221,"latitudeStr":"573346.1N","longitudeStr":"0401020.3E"}]